[
  {
    "Data": "1/2/09 6:17",
    "Produto": "Produto 1",
    "Preco": 1200,
    "TipoPagamento": "Mastercard",
    "Nome": "carolina",
    "Cidade": "Basildon",
    "Estado": "England",
    "Pais": "United Kingdom",
    "DataCriacao": "1/2/09 6:00",
    "UltimoLogin": "1/2/09 6:08",
    "Latitude": 51.5,
    "Longitude": -1.1166667
  },
  {
    "Data": "1/2/09 4:53",
    "Produto": "Produto 1",
    "Preco": 1200,
    "TipoPagamento": "Visa",
    "Nome": "Betina",
    "Cidade": "Parkville",
    "Estado": "MO",
    "Pais": "United States",
    "DataCriacao": "1/2/09 4:42",
    "UltimoLogin": "1/2/09 7:49",
    "Latitude": 39.195,
    "Longitude": -94.68194
  },
  {
    "Data": "1/2/09 13:08",
    "Produto": "Produto 1",
    "Preco": 1200,
    "TipoPagamento": "Mastercard",
    "Nome": "Federica e Andrea",
    "Cidade": "Astoria",
    "Estado": "OR",
    "Pais": "United States",
    "DataCriacao": "1/1/09 16:21",
    "UltimoLogin": "1/3/09 12:32",
    "Latitude": 46.18806,
    "Longitude": -123.83
  },
  {
    "Data": "1/3/09 14:44",
    "Produto": "Produto 1",
    "Preco": 1200,
    "TipoPagamento": "Visa",
    "Nome": "Gouya",
    "Cidade": "Echuca",
    "Estado": "Victoria",
    "Pais": "Australia",
    "DataCriacao": "9/25/05 21:13",
    "UltimoLogin": "1/3/09 14:22",
    "Latitude": -36.1333333,
    "Longitude": 144.75
  },
  {
    "Data": "1/4/09 12:56",
    "Produto": "Produto 2",
    "Preco": 3600,
    "TipoPagamento": "Visa",
    "Nome": "Gerd W",
    "Cidade": "Cahaba Heights",
    "Estado": "AL",
    "Pais": "United States",
    "DataCriacao": "11/15/08 15:47",
    "UltimoLogin": "1/4/09 12:45",
    "Latitude": 33.52056,
    "Longitude": -86.8025
  },
  {
    "Data": "1/4/09 13:19",
    "Produto": "Produto 1",
    "Preco": 1200,
    "TipoPagamento": "Visa",
    "Nome": "LAURENCE",
    "Cidade": "Mickleton",
    "Estado": "NJ",
    "Pais": "United States",
    "DataCriacao": "9/24/08 15:19",
    "UltimoLogin": "1/4/09 13:04",
    "Latitude": 39.79,
    "Longitude": -75.23806
  },
  {
    "Data": "1/4/09 20:11",
    "Produto": "Produto 1",
    "Preco": 1200,
    "TipoPagamento": "Mastercard",
    "Nome": "Fleur",
    "Cidade": "Peoria",
    "Estado": "IL",
    "Pais": "United States",
    "DataCriacao": "1/3/09 9:38",
    "UltimoLogin": "1/4/09 19:45",
    "Latitude": 40.69361,
    "Longitude": -89.58889
  },
  {
    "Data": "1/2/09 20:09",
    "Produto": "Produto 1",
    "Preco": 1200,
    "TipoPagamento": "Mastercard",
    "Nome": "adam",
    "Cidade": "Martin",
    "Estado": "TN",
    "Pais": "United States",
    "DataCriacao": "1/2/09 17:43",
    "UltimoLogin": "1/4/09 20:01",
    "Latitude": 36.34333,
    "Longitude": -88.85028
  },
  {
    "Data": "1/4/09 13:17",
    "Produto": "Produto 1",
    "Preco": 1200,
    "TipoPagamento": "Mastercard",
    "Nome": "Renee Elisabeth",
    "Cidade": "Tel Aviv",
    "Estado": "Tel Aviv",
    "Pais": "Israel",
    "DataCriacao": "1/4/09 13:03",
    "UltimoLogin": "1/4/09 22:10",
    "Latitude": 32.0666667,
    "Longitude": 34.7666667
  },
  {
    "Data": "1/4/09 14:11",
    "Produto": "Produto 1",
    "Preco": 1200,
    "TipoPagamento": "Visa",
    "Nome": "Aidan",
    "Cidade": "Chatou",
    "Estado": "Ile-de-France",
    "Pais": "France",
    "DataCriacao": "6/3/08 4:22",
    "UltimoLogin": "1/5/09 1:17",
    "Latitude": 48.8833333,
    "Longitude": 2.15
  }
]